{"d":[{"PartitionKey":"0402649167_0000000000","RowKey":"acac8d1c-251f-4979-b1e8-4852361172bd","Timestamp":"2012-10-04T06:59:26.5459243Z","entityid":"fca5e10b-bfce-4df2-abef-216e00646fef","raisonsociale":"Parc marin de la Ciotat","type":"cdt:ParcMarin","villevisite":"La Ciotat","longitude":"5.608649","latitude":"43.164966"},{"PartitionKey":"0402649167_0000000001","RowKey":"408ab5bb-9b72-4f2a-a3fa-412b6e46d2fd","Timestamp":"2012-10-04T06:59:26.7637303Z","entityid":"d9a56d48-bc38-449c-bae1-b912dfe54827","raisonsociale":"Baie de La Ciotat","type":"cdt:Baie","villevisite":"La Ciotat","longitude":"5.622489","latitude":"43.184746"},{"PartitionKey":"0402649167_0000000002","RowKey":"9c23f4a9-3b68-42ec-84df-dc86e2df472f","Timestamp":"2012-10-04T06:59:26.8524973Z","entityid":"e723bf1a-af8d-47d7-90d6-a03312a0031c","raisonsociale":"Domaine de la Barasse et de la Forbine","type":"cdt:Foret","villevisite":"Marseille","longitude":"5.48838","latitude":"43.2551"},{"PartitionKey":"0402649167_0000000003","RowKey":"da87498d-9326-4479-8662-8311e4fe1aec","Timestamp":"2012-10-04T06:59:26.8132655Z","entityid":"7e2e3636-ee1d-48d1-a2a2-5e08446dc0c8","raisonsociale":"Domaine de la Quille","type":"cdt:Foret","villevisite":"Le Puy Sainte Réparade","longitude":"5.43652","latitude":"43.6294"},{"PartitionKey":"0402649167_0000000004","RowKey":"e49b3840-d57c-4dba-8b0c-ea8cd98d3faf","Timestamp":"2012-10-04T06:59:26.9968471Z","entityid":"49cdc020-2801-48ab-a066-9ef39e021663","raisonsociale":"Le Rougadou","type":"cdt:MassifMontagne","villevisite":"Châteaurenard\nNoves","longitude":"4.885483","latitude":"43.881315"},{"PartitionKey":"0402649167_0000000005","RowKey":"420df42f-c0d6-465b-a978-fe52976d4895","Timestamp":"2012-10-04T06:59:26.7859919Z","entityid":"fedb1bc9-ef75-44ff-a9c9-6495dedad6d2","raisonsociale":"Montaiguet, Collines de Gardanne","type":"cdt:MassifMontagne","villevisite":"Aix en Provence\nBouc Bel Air\nGardanne\nFuveau\nGréasque\nMeyreuil\nMimet\nSaint Savournin\nSimiane Collongue","longitude":"5.487499","latitude":"43.479332"},{"PartitionKey":"0402649167_0000000006","RowKey":"7bcb4136-0ea9-4d77-b774-684210e8491e","Timestamp":"2012-10-04T06:59:26.8634973Z","entityid":"7aa7e5e2-6d25-4fad-8ff5-2de04c7942df","raisonsociale":"Chambremont","type":"cdt:MassifMontagne","villevisite":"Arles","longitude":"4.796906","latitude":"43.675321"},{"PartitionKey":"0402649167_0000000007","RowKey":"b07d5780-5c2e-4727-a98b-06238ea5c80a","Timestamp":"2012-10-04T06:59:26.8272669Z","entityid":"d6783678-2769-433d-a5a7-f84357efa60c","raisonsociale":"Collines de Barjaquets","type":"cdt:MassifMontagne","villevisite":"La Fare les Oliviers","longitude":"5.184517","latitude":"43.562233"},{"PartitionKey":"0402649167_0000000008","RowKey":"85695d77-c7cb-4926-8025-983eb3ef7b9b","Timestamp":"2012-10-04T06:59:27.0168471Z","entityid":"61a7d46e-56a3-4fe7-99e0-7b6346551e8c","raisonsociale":"Calanque d'En Vau","type":"cdt:Littoral","villevisite":"Marseille","longitude":"5.498185","latitude":"43.202267"},{"PartitionKey":"0402649167_0000000009","RowKey":"f4e09cbe-453e-44b1-8105-96218956f4c6","Timestamp":"2012-10-04T06:59:26.8804973Z","entityid":"d84496ee-adcc-4c63-bc82-66cc4c53ce32","raisonsociale":"Domaine de Roques Hautes - Domaine Louis Philibert","type":"cdt:Foret","villevisite":"Aix en Provence\nBeaurecueil\nLe Tholonet\nSaint Antonin sur Bayon","longitude":"5.4998","latitude":"43.5315"},{"PartitionKey":"0402649167_0000000010","RowKey":"b6f16f1b-66a9-4ed4-aa49-52c23e65968b","Timestamp":"2012-10-04T06:59:26.5639243Z","entityid":"b707c2a8-6d31-4eb3-8d49-ef86b915dea7","raisonsociale":"Calanque de Sormiou","type":"cdt:Littoral","villevisite":"Marseille","longitude":"5.419843","latitude":"43.21004"},{"PartitionKey":"0402649167_0000000011","RowKey":"25518d14-e58d-4ff5-b363-d62d6f005984","Timestamp":"2012-10-04T06:59:26.7857325Z","entityid":"4b221f15-d220-4874-ab87-dc2b58c2478f","raisonsociale":"Domaine du Taulisson, Lambruisse et Puits d'Auzon - La Sinne","type":"cdt:Foret","villevisite":"Vauvenargues","longitude":"5.68061","latitude":"43.5524"},{"PartitionKey":"0402649167_0000000012","RowKey":"9e4c8b19-2fb7-4568-9506-c4ef3a0f9577","Timestamp":"2012-10-04T06:59:26.8362678Z","entityid":"7ceb16d7-c644-4941-98f7-519db496db8d","raisonsociale":"Calanque de Port Pin","type":"cdt:Littoral","villevisite":"Marseille","longitude":"5.510786","latitude":"43.203928"},{"PartitionKey":"0402649167_0000000013","RowKey":"50c517f4-9300-4894-bcde-d99a848723f0","Timestamp":"2012-10-04T06:59:26.8089919Z","entityid":"1b92ee68-9158-4fff-8182-3e039eef5cf4","raisonsociale":"Les Goudes - Luminy","type":"cdt:Littoral","villevisite":"Marseille","longitude":"5.346909","latitude":"43.215185"},{"PartitionKey":"0402649167_0000000014","RowKey":"230ff54b-1eea-402b-b8d4-f1a81083dfb9","Timestamp":"2012-10-04T06:59:26.8884973Z","entityid":"8b561a9e-043b-4a19-8b42-c95ce3f5a0d1","raisonsociale":"Calanque de Callelongue","type":"cdt:Littoral","villevisite":"Marseille","longitude":"5.353539","latitude":"43.212229"},{"PartitionKey":"0402649167_0000000015","RowKey":"6f7668fc-e283-4978-8b9d-4d51987519f3","Timestamp":"2012-10-04T06:59:26.8994973Z","entityid":"b294a7b7-d284-4098-bddc-20bc934bdb76","raisonsociale":"Domaine du Val de Vignes","type":"cdt:Foret","villevisite":"Velaux","longitude":"5.30093","latitude":"43.5136"},{"PartitionKey":"0402649167_0000000016","RowKey":"662e6b9a-2a01-47a4-8aaf-927868a3233f","Timestamp":"2012-10-04T06:59:27.0298471Z","entityid":"2f09047b-4a9d-40d2-8c04-ca81810d2cc6","raisonsociale":"Calanque de Morgiou","type":"cdt:Littoral","villevisite":"Marseille","longitude":"5.443726","latitude":"43.213011"},{"PartitionKey":"0402649167_0000000017","RowKey":"34cfc0c3-28ae-4802-92a2-c10f81b63bf0","Timestamp":"2012-10-04T06:59:26.7947334Z","entityid":"1f53a3ea-54e2-464a-90c4-ac4597739948","raisonsociale":"Cap Croisette","type":"cdt:Littoral","villevisite":"Marseille","longitude":"5.337574","latitude":"43.214051"},{"PartitionKey":"0402649167_0000000018","RowKey":"dd0c23f2-3dc1-45bf-947a-ee1cc522065a","Timestamp":"2012-10-04T06:59:26.5779243Z","entityid":"5a84a594-405b-42da-8cb6-055f6dc5f591","raisonsociale":"Calanque de Port Miou","type":"cdt:Littoral","villevisite":"Cassis","longitude":"5.52137","latitude":"43.211268"},{"PartitionKey":"0402649167_0000000019","RowKey":"e4342924-183a-4ae1-89a0-551724962fb1","Timestamp":"2012-10-04T06:59:26.8199919Z","entityid":"c881c28a-1995-4881-a090-326089cc6997","raisonsociale":"Domaine de Caireval","type":"cdt:Foret","villevisite":"Rognes","longitude":"5.31225","latitude":"43.681399999999996"},{"PartitionKey":"0402649167_0000000020","RowKey":"bf0e9b03-bac9-4334-84c5-ac11c2700f0d","Timestamp":"2012-10-04T06:59:26.8492691Z","entityid":"143d830b-4639-4385-bae8-6cb5fc9a4bf7","raisonsociale":"Domaine la Nègre","type":"cdt:Foret","villevisite":"Plan de Cuques\nMarseille","longitude":"5.45346","latitude":"43.3499"},{"PartitionKey":"0402649167_0000000021","RowKey":"fd1e1244-d2ab-4b78-b0f9-74be34700651","Timestamp":"2012-10-04T06:59:26.8632705Z","entityid":"d41c1435-53c7-46df-8991-34654331dc70","raisonsociale":"Sulauze","type":"cdt:MassifMontagne","villevisite":"Istres\nMiramas","longitude":"4.995832","latitude":"43.555801"},{"PartitionKey":"0402649167_0000000022","RowKey":"22d4603d-8cfc-4816-abe8-a5331a2ffb27","Timestamp":"2012-10-04T06:59:27.0438471Z","entityid":"b868a818-9987-4cb7-9dcf-54f69752b6b3","raisonsociale":"Cadérou et Figuerolles","type":"cdt:SitesDivers","villevisite":"Saint Mitre les Remparts","longitude":"5.031481","latitude":"43.453854"},{"PartitionKey":"0402649167_0000000023","RowKey":"1e0ea4dc-a3da-48d2-bf6f-8725a426197b","Timestamp":"2012-10-04T06:59:26.8559919Z","entityid":"db11cefa-1f08-46fe-9880-c3631c73695f","raisonsociale":"Lac du Bimont","type":"cdt:PlanDEauLacEtang","villevisite":"Aix en Provence\nSaint Marc Jaumegarde","longitude":"5.544491","latitude":"43.546371"},{"PartitionKey":"0402649167_0000000024","RowKey":"d79ceac2-d62b-4859-99d4-ff9b2f72d866","Timestamp":"2012-10-04T06:59:26.5919243Z","entityid":"07f0747b-8ff4-4521-859a-da270ae0306a","raisonsociale":"Massif de Castillon","type":"cdt:MassifMontagne","villevisite":"Port de Bouc\nIstres\nMartigues\nSaint Mitre les Remparts\nFos sur Mer","longitude":"4.98281","latitude":"43.4401"},{"PartitionKey":"0402649167_0000000025","RowKey":"578aaf4b-c835-44c9-86c7-af424f6066f2","Timestamp":"2012-10-04T06:59:26.6019243Z","entityid":"1d3f3850-cdc9-48db-ad8f-8a34230164cf","raisonsociale":"L'Etang des Aulnes et la Forêt de la Castelette","type":"cdt:Foret\ncdt:PlanDEauLacEtang","villevisite":"Saint Martin de Crau","longitude":"4.78451","latitude":"43.5981"},{"PartitionKey":"0402649167_0000000026","RowKey":"a91e63f5-56f7-4c1a-ac70-c3fcd3c78919","Timestamp":"2012-10-04T06:59:26.8409919Z","entityid":"947a3f67-cc9b-4f8b-a9a7-b7eed4035731","raisonsociale":"Lunard, Pont de Rhaud","type":"cdt:MassifMontagne","villevisite":"Cornillon Confoux\nGrans\nMiramas\nSalon de Provence\nSaint Chamas","longitude":"5.051601","latitude":"43.587861"},{"PartitionKey":"0402649167_0000000027","RowKey":"1a748470-5c28-4642-a78f-1cd7c20bf771","Timestamp":"2012-10-04T06:59:27.0658471Z","entityid":"bee38642-3d32-4005-ad0d-f720ba9a6929","raisonsociale":"La Crau","type":"cdt:PlaineValleeDelta","villevisite":"Saint Martin de Crau","longitude":"4.77182","latitude":"43.5611"},{"PartitionKey":"0402649167_0000000028","RowKey":"e6533328-ee24-4e4a-8b25-0087b0880513","Timestamp":"2012-10-04T06:59:26.9164973Z","entityid":"f6ec6fd5-9b60-4469-a095-e305c8d8ab28","raisonsociale":"Quatre Termes","type":"cdt:MassifMontagne","villevisite":"La Barben\nCornillon Confoux\nCoudoux\nEguilles\nLa Fare les Oliviers\nLambesc\nLançon Provence\nPélissanne\nSaint Cannat\nVentabren\nSaint Chamas","longitude":"5.289917","latitude":"43.568452"},{"PartitionKey":"0402649167_0000000029","RowKey":"f580904d-b664-4dd9-81c4-35e9a5674d62","Timestamp":"2012-10-04T06:59:26.9324973Z","entityid":"51aa310c-33ec-4722-846f-59b39587b444","raisonsociale":"L'Arbois","type":"cdt:MassifMontagne","villevisite":"Aix en Provence\nCabriès\nVentabren\nVitrolles\nBerre l'Etang\nCoudoux\nLes Pennes Mirabeau\nRognac\nVelaux","longitude":"5.30262","latitude":"43.451174"},{"PartitionKey":"0402649167_0000000030","RowKey":"91cda766-9ee6-4ea2-84aa-6ffd7b74d4fa","Timestamp":"2012-10-04T06:59:26.8792721Z","entityid":"1187a1db-c215-4f69-ae17-c719d9b50974","raisonsociale":"Massifs de sainte Victoire et Concors","type":"cdt:MassifMontagne","villevisite":"Jouques\nMeyrargues\nPeyrolles en Provence\nAix en Provence\nBeaurecueil\nChâteauneuf le Rouge\nMeyreuil\nPuyloubier\nRousset\nSaint Antonin sur Bayon\nSaint Marc Jaumegarde\nSaint Paul lez Durance\nLe Tholonet\nVauvenargues\nVenelles","longitude":"5.57783","latitude":"43.6123"},{"PartitionKey":"0402649167_0000000031","RowKey":"b959f9a6-2c56-4c92-94d3-8a7920a9dcfd","Timestamp":"2012-10-04T06:59:26.8912733Z","entityid":"12cacd1b-24c1-4da3-b5d1-bc9a6e90925c","raisonsociale":"Massif de la Sainte Baume","type":"cdt:MassifMontagne","villevisite":"Aubagne\nAuriol\nCuges les Pins\nGémenos\nCarnoux en Provence\nCassis\nCeyreste\nLa Ciotat\nMarseille\nLa Penne sur Huveaune\nRoquefort la Bédoule\nRoquevaire","longitude":"5.67612","latitude":"43.3103"},{"PartitionKey":"0402649167_0000000032","RowKey":"de5b3e28-1d80-4144-a8e5-74129eec9749","Timestamp":"2012-10-04T06:59:26.6159243Z","entityid":"de0fc26c-2e44-4a3b-9db5-1b4cffba29f0","raisonsociale":"Le Regagnas","type":"cdt:MassifMontagne","villevisite":"Auriol\nLa Destrousse\nLa Bouilladisse\nPeynier\nTrets\nBelcodène\nCadolive\nFuveau\nPeypin\nSaint Savournin\nGréasque","longitude":"5.65234","latitude":"43.4154"},{"PartitionKey":"0402649167_0000000033","RowKey":"2960042d-07a9-4cce-b616-a0abca25845e","Timestamp":"2012-10-04T06:59:26.6259243Z","entityid":"293a52b5-5e8d-4242-a4b7-6205c8cd13c0","raisonsociale":"La Montagnette","type":"cdt:MassifMontagne","villevisite":"Barbentane\nBoulbon\nGraveson\nTarascon","longitude":"4.71667","latitude":"43.85"},{"PartitionKey":"0402649167_0000000034","RowKey":"04b60bf2-9b94-44c3-aef7-2746a8749b28","Timestamp":"2012-10-04T06:59:26.9444973Z","entityid":"92bd57bb-cd98-45ef-a4a7-98a88d1a0786","raisonsociale":"Digue à la mer","type":"cdt:Littoral","villevisite":"Saintes Maries de la Mer","longitude":"4.572716","latitude":"43.454508"},{"PartitionKey":"0402649167_0000000035","RowKey":"68ffe91b-bbd5-4f3e-bd15-e53a786cdfac","Timestamp":"2012-10-04T06:59:26.9604973Z","entityid":"52d2bd13-e43e-47db-a685-acc9a826857f","raisonsociale":"Lac de Zola","type":"cdt:PlanDEauLacEtang","villevisite":"Aix en Provence\nSaint Marc Jaumegarde","longitude":"5.51151","latitude":"43.532247"},{"PartitionKey":"0402649167_0000000036","RowKey":"6e03794b-bb55-47fe-b162-48a702b344ce","Timestamp":"2012-10-04T06:59:26.8699919Z","entityid":"9736a56b-2504-494a-b819-7b4e51145947","raisonsociale":"Collines de Lançon","type":"cdt:MassifMontagne","villevisite":"La Barben\nCornillon Confoux\nCoudoux\nEguilles\nLa Fare les Oliviers\nLambesc\nLançon Provence\nPélissanne\nSaint Cannat\nVentabren\nSaint Chamas","longitude":"5.159783","latitude":"43.5645"},{"PartitionKey":"0402649167_0000000037","RowKey":"fcfb9e6f-8aa5-4d1e-b133-f94b2e321c0e","Timestamp":"2012-10-04T06:59:26.8859919Z","entityid":"2b420f01-0c86-4827-a632-581e9fecd4b0","raisonsociale":"Domaine de Marseilleveyre","type":"cdt:Littoral","villevisite":"Marseille","longitude":"5.370255","latitude":"43.215185"},{"PartitionKey":"0402649167_0000000038","RowKey":"fe0198b3-bd30-4e16-bd01-886b922c99d2","Timestamp":"2012-10-04T06:59:27.0848471Z","entityid":"87dbacb4-fe3b-40a4-9e53-28b0816dcd1a","raisonsociale":"Les Calanques - Futur parc national","type":"cdt:Littoral","villevisite":"Cassis\nMarseille","longitude":"5.42451","latitude":"43.2123"},{"PartitionKey":"0402649167_0000000039","RowKey":"15cca1fd-6a38-489e-9615-2f0ff1520b69","Timestamp":"2012-10-04T06:59:27.1068471Z","entityid":"c395d874-5ca6-4a37-bbce-fef61dc98002","raisonsociale":"La Côte Bleue","type":"cdt:Littoral\ncdt:MassifMontagne","villevisite":"Carry le Rouet\nEnsuès la Redonne\nMartigues\nSausset les Pins","longitude":"5.130787","latitude":"43.328799"},{"PartitionKey":"0402649167_0000000040","RowKey":"92393b02-852a-4b42-90b0-a0f019a33216","Timestamp":"2012-10-04T06:59:26.6409243Z","entityid":"d5cdb1bb-c978-4265-a908-1b8567bbf29e","raisonsociale":"Calanque de Mugel","type":"cdt:Littoral","villevisite":"La Ciotat","longitude":"5.60586","latitude":"43.166156"},{"PartitionKey":"0402649167_0000000041","RowKey":"f247c4c6-15fa-4176-a045-547c2438e51c","Timestamp":"2012-10-04T06:59:27.1634973Z","entityid":"3aa8c03d-c5dd-489d-9547-ffe8158f7f39","raisonsociale":"Parc marin de la Côte Bleue","type":"cdt:ParcMarin","villevisite":"Carry le Rouet\nEnsuès la Redonne\nLe Rove\nMartigues\nSausset les Pins","longitude":"5.12074","latitude":"43.3274"},{"PartitionKey":"0402649167_0000000042","RowKey":"1211cec1-73fe-4150-9992-65a7f293440a","Timestamp":"2012-10-04T06:59:26.9009919Z","entityid":"cc857482-e1ee-40ff-b0b3-fa76202a4a9d","raisonsociale":"Etang de Berre","type":"cdt:PlanDEauLacEtang","villevisite":"Berre l'Etang\nChâteauneuf les Martigues\nGignac la Nerthe\nIstres\nMartigues\nMiramas\nRognac\nSaint Mitre les Remparts\nSaint Victoret\nVitrolles\nMarignane\nSaint Chamas","longitude":"5.171127","latitude":"43.463137"},{"PartitionKey":"0402649167_0000000043","RowKey":"41bc9a85-4206-4d44-80ae-64851354bb1a","Timestamp":"2012-10-04T06:59:26.9099919Z","entityid":"4777ed7e-3bae-407f-8b94-03c5138d8034","raisonsociale":"Archipel de Frioul","type":"cdt:Ile","villevisite":"Marseille","longitude":"5.30496","latitude":"43.2806"},{"PartitionKey":"0402649167_0000000044","RowKey":"dc1211e5-71f1-4ce2-9148-f7b63a9954c9","Timestamp":"2012-10-04T06:59:27.1168471Z","entityid":"269bb82c-d4ee-463f-8625-0b4877c074d7","raisonsociale":"La Trévaresse","type":"cdt:MassifMontagne","villevisite":"Aix en Provence\nAlleins\nAurons\nCharleval\nLamanon\nLambesc\nMallemort\nMeyrargues\nLe Puy Sainte Réparade\nRognes\nLa Roque d'Anthéron\nSalon de Provence\nSaint Cannat\nSaint Estève Janson\nPélissanne\nVenelles\nVernègues","longitude":"5.39894","latitude":"43.6163"},{"PartitionKey":"0402649167_0000000045","RowKey":"4f74039b-699e-4d02-a8e6-bbd576d9d073","Timestamp":"2012-10-04T06:59:27.1238471Z","entityid":"31b73b9e-e699-4263-8592-882e08f31012","raisonsociale":"Cap Canaille","type":"cdt:Littoral\ncdt:MassifMontagne","villevisite":"Cassis\nLa Ciotat","longitude":"5.551958","latitude":"43.198231"},{"PartitionKey":"0402649167_0000000046","RowKey":"5d71ea5e-fb89-4d51-ac7b-602d37700288","Timestamp":"2012-10-04T06:59:27.0084973Z","entityid":"0fa290d7-2d91-4bea-82ad-e0bd35e294f8","raisonsociale":"Domaine de Fontblanche","type":"cdt:Foret","villevisite":"Ceyreste\nRoquefort la Bédoule","longitude":"5.62448","latitude":"43.2365"},{"PartitionKey":"0402649167_0000000047","RowKey":"f7e5cd63-9d14-4545-b686-d88ebee69c11","Timestamp":"2012-10-04T06:59:26.9529919Z","entityid":"021bc885-7946-4264-b504-29184d0d25bb","raisonsociale":"Chaîne des Côtes","type":"cdt:MassifMontagne","villevisite":"Aix en Provence\nAlleins\nAurons\nCharleval\nLamanon\nLambesc\nMallemort\nMeyrargues\nLe Puy Sainte Réparade\nRognes\nLa Roque d'Anthéron\nSalon de Provence\nSaint Cannat\nSaint Estève Janson\nPélissanne\nVenelles\nVernègues","longitude":"5.26665","latitude":"43.684114"},{"PartitionKey":"0402649167_0000000048","RowKey":"1283c29f-c815-4968-ab01-9b309967fbe5","Timestamp":"2012-10-04T06:59:27.1798471Z","entityid":"bff04847-3a84-4511-9b99-484bd927222e","raisonsociale":"Grand Site Sainte Victoire","type":"cdt:SitesDivers","villevisite":"Aix en Provence\nBeaurecueil\nJouques\nLe Tholonet\nPuyloubier\nRousset\nSaint Antonin sur Bayon\nSaint Marc Jaumegarde\nSaint Paul lez Durance\nVauvenargues\nPeyrolles en Provence\nVenelles\nChâteauneuf le Rouge\nMeyrargues","longitude":"5.545092","latitude":"43.531687"},{"PartitionKey":"0402649167_0000000049","RowKey":"3c2a4299-ea01-4e44-ad0a-c78f20f3a6f2","Timestamp":"2012-10-04T06:59:27.2908471Z","entityid":"df30074c-c4b2-4d77-ab8d-bb136ce282f4","raisonsociale":"Saint Pons","type":"cdt:Foret","villevisite":"Gémenos","longitude":"5.65407","latitude":"43.2928"},{"PartitionKey":"0402649167_0000000050","RowKey":"76e70e5f-93b9-49aa-a1df-5f98241779f2","Timestamp":"2012-10-04T06:59:26.9239919Z","entityid":"cf5d4215-0822-49ec-a8c3-1b5df1eef103","raisonsociale":"Le Bec de l'Aigle","type":"cdt:Littoral","villevisite":"La Ciotat","longitude":"5.60483","latitude":"43.160646"},{"PartitionKey":"0402649167_0000000051","RowKey":"fca18f6e-bf11-4bb7-8c2f-d2804f821778","Timestamp":"2012-10-04T06:59:26.9379919Z","entityid":"40f6988a-4da7-455f-8151-45e32226b435","raisonsociale":"L'Ile Verte","type":"cdt:Littoral","villevisite":"La Ciotat","longitude":"5.617704","latitude":"43.161429"},{"PartitionKey":"0402649167_0000000052","RowKey":"3bc1cf00-d1a0-438c-9909-95923e258394","Timestamp":"2012-10-04T06:59:27.1648471Z","entityid":"a660f88f-ee4f-433e-8599-75809af4390c","raisonsociale":"Le Garlaban","type":"cdt:MassifMontagne","villevisite":"Aubagne\nAllauch\nRoquevaire\nLa Destrousse\nMarseille\nBouc Bel Air\nCadolive\nMimet\nLes Pennes Mirabeau\nPeypin\nSaint Savournin\nSeptèmes les Vallons\nSimiane Collongue\nPlan de Cuques","longitude":"5.52603","latitude":"43.3215"},{"PartitionKey":"0402649167_0000000053","RowKey":"1d2b96a3-0669-4700-9bdd-30c154ef7719","Timestamp":"2012-10-04T06:59:26.9679919Z","entityid":"1f52efb5-522b-4bac-a4d3-e89e2139910a","raisonsociale":"Parc naturel régional des Alpilles","type":"cdt:ParcNaturel","villevisite":"Aureille\nEygalières\nEyguières\nLes Baux de Provence\nMas Blanc des Alpilles\nMouriès\nLe Paradou\nSaint Etienne du Grès\nSaint Rémy de Provence\nMaussane les Alpilles","longitude":"4.91858","latitude":"43.7389"},{"PartitionKey":"0402649167_0000000054","RowKey":"a022858b-5b79-41f9-80ad-eb807f68b683","Timestamp":"2012-10-04T06:59:27.0284973Z","entityid":"53d8cbb5-8dd2-4476-b0d2-0733721fb390","raisonsociale":"Parc naturel régional de Camargue","type":"cdt:PlaineValleeDelta\ncdt:ParcNaturel","villevisite":"Arles\nSaintes Maries de la Mer\nPort Saint Louis du Rhône","longitude":"4.59436","latitude":"43.606"},{"PartitionKey":"0402649167_0000000055","RowKey":"d9db4fe7-7700-465e-9daa-4c33b2d07dac","Timestamp":"2012-10-04T06:59:27.0434973Z","entityid":"37b80fe7-1054-4db6-b255-5d2406fdd656","raisonsociale":"Domaine départemental de Pichauris","type":"cdt:Foret","villevisite":"Allauch","longitude":"5.492992","latitude":"43.3219"},{"PartitionKey":"0402649167_0000000056","RowKey":"f3c58b94-d4ca-4289-9a63-d53618372c8d","Timestamp":"2012-10-04T06:59:27.0674973Z","entityid":"0aa14cf1-61ef-40b4-844c-ddfc52756466","raisonsociale":"Chaîne de l'Etoile","type":"cdt:MassifMontagne","villevisite":"Simiane Collongue\nCadolive\nLa Destrousse\nMarseille\nMimet\nPeypin\nPlan de Cuques\nRoquevaire\nSeptèmes les Vallons\nAllauch\nSaint Savournin\nAubagne\nBouc Bel Air\nLes Pennes Mirabeau","longitude":"5.50637","latitude":"43.3747"}]}